{
  "type": "FeatureCollection",
  "features": [
    {
      "type": "Feature",
      "properties": {
        "name": "Aspen Hill",
        "state": "Maryland",
        "population": 48759
      },
      "geometry": {
        "type": "Point",
        "coordinates": [
          -77.07303,
          39.07955
        ]
      }
    },
    {
      "type": "Feature",
      "properties": {
        "name": "Catonsville",
        "state": "Maryland",
        "population": 41567
      },
      "geometry": {
        "type": "Point",
        "coordinates": [
          -76.73192,
          39.27205
        ]
      }
    },
    {
      "type": "Feature",
      "properties": {
        "name": "Columbus",
        "state": "Mississippi",
        "population": 23168
      },
      "geometry": {
        "type": "Point",
        "coordinates": [
          -88.42726,
          33.49567
        ]
      }
    },
    {
      "type": "Feature",
      "properties": {
        "name": "Upper Arlington",
        "state": "Ohio",
        "population": 34907
      },
      "geometry": {
        "type": "Point",
        "coordinates": [
          -83.06241,
          39.99451
        ]
      }
    },
    {
      "type": "Feature",
      "properties": {
        "name": "Del City",
        "state": "Oklahoma",
        "population": 22022
      },
      "geometry": {
        "type": "Point",
        "coordinates": [
          -97.44087,
          35.44201
        ]
      }
    },
    {
      "type": "Feature",
      "properties": {
        "name": "Jenks",
        "state": "Oklahoma",
        "population": 20740
      },
      "geometry": {
        "type": "Point",
        "coordinates": [
          -95.96833,
          36.02287
        ]
      }
    },
    {
      "type": "Feature",
      "properties": {
        "name": "Spartanburg",
        "state": "South Carolina",
        "population": 37867
      },
      "geometry": {
        "type": "Point",
        "coordinates": [
          -81.93205,
          34.94957
        ]
      }
    },
    {
      "type": "Feature",
      "properties": {
        "name": "La Vergne",
        "state": "Tennessee",
        "population": 34794
      },
      "geometry": {
        "type": "Point",
        "coordinates": [
          -86.58194,
          36.01562
        ]
      }
    },
    {
      "type": "Feature",
      "properties": {
        "name": "Smyrna",
        "state": "Tennessee",
        "population": 46607
      },
      "geometry": {
        "type": "Point",
        "coordinates": [
          -86.5186,
          35.98284
        ]
      }
    },
    {
      "type": "Feature",
      "properties": {
        "name": "Bedford",
        "state": "Texas",
        "population": 49337
      },
      "geometry": {
        "type": "Point",
        "coordinates": [
          -97.14307,
          32.84402
        ]
      }
    },
    {
      "type": "Feature",
      "properties": {
        "name": "Corinth",
        "state": "Texas",
        "population": 20998
      },
      "geometry": {
        "type": "Point",
        "coordinates": [
          -97.06473,
          33.15401
        ]
      }
    },
    {
      "type": "Feature",
      "properties": {
        "name": "Little Elm",
        "state": "Texas",
        "population": 38341
      },
      "geometry": {
        "type": "Point",
        "coordinates": [
          -96.93751,
          33.16262
        ]
      }
    },
    {
      "type": "Feature",
      "properties": {
        "name": "North Richland Hills",
        "state": "Texas",
        "population": 69204
      },
      "geometry": {
        "type": "Point",
        "coordinates": [
          -97.2289,
          32.8343
        ]
      }
    },
    {
      "type": "Feature",
      "properties": {
        "name": "Stephenville",
        "state": "Texas",
        "population": 20120
      },
      "geometry": {
        "type": "Point",
        "coordinates": [
          -98.20226,
          32.2207
        ]
      }
    },
    {
      "type": "Feature",
      "properties": {
        "name": "Mechanicsville",
        "state": "Virginia",
        "population": 36348
      },
      "geometry": {
        "type": "Point",
        "coordinates": [
          -77.37331,
          37.60876
        ]
      }
    },
    {
      "type": "Feature",
      "properties": {
        "name": "Athens",
        "state": "Alabama",
        "population": 24966
      },
      "geometry": {
        "type": "Point",
        "coordinates": [
          -86.97219,
          34.80243
        ]
      }
    },
    {
      "type": "Feature",
      "properties": {
        "name": "Enfield",
        "state": "Connecticut",
        "population": 45212
      },
      "geometry": {
        "type": "Point",
        "coordinates": [
          -72.59176,
          41.97621
        ]
      }
    },
    {
      "type": "Feature",
      "properties": {
        "name": "Naugatuck",
        "state": "Connecticut",
        "population": 31538
      },
      "geometry": {
        "type": "Point",
        "coordinates": [
          -73.05066,
          41.48593
        ]
      }
    },
    {
      "type": "Feature",
      "properties": {
        "name": "Coralville",
        "state": "Iowa",
        "population": 20608
      },
      "geometry": {
        "type": "Point",
        "coordinates": [
          -91.58045,
          41.6764
        ]
      }
    },
    {
      "type": "Feature",
      "properties": {
        "name": "Hoffman Estates",
        "state": "Illinois",
        "population": 52138
      },
      "geometry": {
        "type": "Point",
        "coordinates": [
          -88.0798,
          42.04281
        ]
      }
    },
    {
      "type": "Feature",
      "properties": {
        "name": "Lower West Side",
        "state": "Illinois",
        "population": 34410
      },
      "geometry": {
        "type": "Point",
        "coordinates": [
          -87.66561,
          41.8542
        ]
      }
    },
    {
      "type": "Feature",
      "properties": {
        "name": "Near North Side",
        "state": "Illinois",
        "population": 85711
      },
      "geometry": {
        "type": "Point",
        "coordinates": [
          -87.6345,
          41.90003
        ]
      }
    },
    {
      "type": "Feature",
      "properties": {
        "name": "Palatine",
        "state": "Illinois",
        "population": 69308
      },
      "geometry": {
        "type": "Point",
        "coordinates": [
          -88.03424,
          42.1103
        ]
      }
    },
    {
      "type": "Feature",
      "properties": {
        "name": "Danvers",
        "state": "Massachusetts",
        "population": 26493
      },
      "geometry": {
        "type": "Point",
        "coordinates": [
          -70.93005,
          42.57509
        ]
      }
    },
    {
      "type": "Feature",
      "properties": {
        "name": "Leominster",
        "state": "Massachusetts",
        "population": 41569
      },
      "geometry": {
        "type": "Point",
        "coordinates": [
          -71.75979,
          42.52509
        ]
      }
    },
    {
      "type": "Feature",
      "properties": {
        "name": "Malden",
        "state": "Massachusetts",
        "population": 61068
      },
      "geometry": {
        "type": "Point",
        "coordinates": [
          -71.06616,
          42.4251
        ]
      }
    },
    {
      "type": "Feature",
      "properties": {
        "name": "Grand Rapids",
        "state": "Michigan",
        "population": 195097
      },
      "geometry": {
        "type": "Point",
        "coordinates": [
          -85.66809,
          42.96336
        ]
      }
    },
    {
      "type": "Feature",
      "properties": {
        "name": "Lansing",
        "state": "Michigan",
        "population": 115056
      },
      "geometry": {
        "type": "Point",
        "coordinates": [
          -84.55553,
          42.73253
        ]
      }
    },
    {
      "type": "Feature",
      "properties": {
        "name": "Maple Grove",
        "state": "Minnesota",
        "population": 68385
      },
      "geometry": {
        "type": "Point",
        "coordinates": [
          -93.45579,
          45.07246
        ]
      }
    },
    {
      "type": "Feature",
      "properties": {
        "name": "Grand Island",
        "state": "Nebraska",
        "population": 51440
      },
      "geometry": {
        "type": "Point",
        "coordinates": [
          -98.34201,
          40.92501
        ]
      }
    },
    {
      "type": "Feature",
      "properties": {
        "name": "Hastings",
        "state": "Nebraska",
        "population": 24924
      },
      "geometry": {
        "type": "Point",
        "coordinates": [
          -98.38839,
          40.58612
        ]
      }
    },
    {
      "type": "Feature",
      "properties": {
        "name": "Nashua",
        "state": "New Hampshire",
        "population": 87970
      },
      "geometry": {
        "type": "Point",
        "coordinates": [
          -71.46757,
          42.76537
        ]
      }
    },
    {
      "type": "Feature",
      "properties": {
        "name": "Parsippany",
        "state": "New Jersey",
        "population": 51144
      },
      "geometry": {
        "type": "Point",
        "coordinates": [
          -74.42599,
          40.85788
        ]
      }
    },
    {
      "type": "Feature",
      "properties": {
        "name": "Coney Island",
        "state": "New York",
        "population": 60000
      },
      "geometry": {
        "type": "Point",
        "coordinates": [
          -73.99403,
          40.57788
        ]
      }
    },
    {
      "type": "Feature",
      "properties": {
        "name": "Greenpoint",
        "state": "New York",
        "population": 34719
      },
      "geometry": {
        "type": "Point",
        "coordinates": [
          -73.95097,
          40.72371
        ]
      }
    },
    {
      "type": "Feature",
      "properties": {
        "name": "Sheepshead Bay",
        "state": "New York",
        "population": 122534
      },
      "geometry": {
        "type": "Point",
        "coordinates": [
          -73.94458,
          40.59122
        ]
      }
    },
    {
      "type": "Feature",
      "properties": {
        "name": "West Babylon",
        "state": "New York",
        "population": 43213
      },
      "geometry": {
        "type": "Point",
        "coordinates": [
          -73.35429,
          40.71816
        ]
      }
    },
    {
      "type": "Feature",
      "properties": {
        "name": "Maple Heights",
        "state": "Ohio",
        "population": 22631
      },
      "geometry": {
        "type": "Point",
        "coordinates": [
          -81.56596,
          41.41533
        ]
      }
    },
    {
      "type": "Feature",
      "properties": {
        "name": "Stow",
        "state": "Ohio",
        "population": 34797
      },
      "geometry": {
        "type": "Point",
        "coordinates": [
          -81.44039,
          41.1595
        ]
      }
    },
    {
      "type": "Feature",
      "properties": {
        "name": "Daphne",
        "state": "Alabama",
        "population": 24896
      },
      "geometry": {
        "type": "Point",
        "coordinates": [
          -87.9036,
          30.60353
        ]
      }
    },
    {
      "type": "Feature",
      "properties": {
        "name": "Bentonville",
        "state": "Arkansas",
        "population": 44499
      },
      "geometry": {
        "type": "Point",
        "coordinates": [
          -94.20882,
          36.37285
        ]
      }
    },
    {
      "type": "Feature",
      "properties": {
        "name": "Newark",
        "state": "Delaware",
        "population": 33817
      },
      "geometry": {
        "type": "Point",
        "coordinates": [
          -75.74966,
          39.68372
        ]
      }
    },
    {
      "type": "Feature",
      "properties": {
        "name": "Carrollwood Village",
        "state": "Florida",
        "population": 40949
      },
      "geometry": {
        "type": "Point",
        "coordinates": [
          -82.52093,
          28.06752
        ]
      }
    },
    {
      "type": "Feature",
      "properties": {
        "name": "Keystone",
        "state": "Florida",
        "population": 24039
      },
      "geometry": {
        "type": "Point",
        "coordinates": [
          -82.62121,
          28.15585
        ]
      }
    },
    {
      "type": "Feature",
      "properties": {
        "name": "Panama City",
        "state": "Florida",
        "population": 38286
      },
      "geometry": {
        "type": "Point",
        "coordinates": [
          -85.65983,
          30.15946
        ]
      }
    },
    {
      "type": "Feature",
      "properties": {
        "name": "Pensacola",
        "state": "Florida",
        "population": 53193
      },
      "geometry": {
        "type": "Point",
        "coordinates": [
          -87.21691,
          30.42131
        ]
      }
    },
    {
      "type": "Feature",
      "properties": {
        "name": "Wright",
        "state": "Florida",
        "population": 23127
      },
      "geometry": {
        "type": "Point",
        "coordinates": [
          -86.63829,
          30.45575
        ]
      }
    },
    {
      "type": "Feature",
      "properties": {
        "name": "Upper Alton",
        "state": "Illinois",
        "population": 29251
      },
      "geometry": {
        "type": "Point",
        "coordinates": [
          -90.15066,
          38.91144
        ]
      }
    },
    {
      "type": "Feature",
      "properties": {
        "name": "Evansville",
        "state": "Indiana",
        "population": 119943
      },
      "geometry": {
        "type": "Point",
        "coordinates": [
          -87.55585,
          37.97476
        ]
      }
    },
    {
      "type": "Feature",
      "properties": {
        "name": "Junction City",
        "state": "Kansas",
        "population": 24621
      },
      "geometry": {
        "type": "Point",
        "coordinates": [
          -96.8314,
          39.02861
        ]
      }
    },
    {
      "type": "Feature",
      "properties": {
        "name": "Woodlawn",
        "state": "Illinois",
        "population": 24150
      },
      "geometry": {
        "type": "Point",
        "coordinates": [
          -87.59949,
          41.77948
        ]
      }
    },
    {
      "type": "Feature",
      "properties": {
        "name": "Gary",
        "state": "Indiana",
        "population": 77156
      },
      "geometry": {
        "type": "Point",
        "coordinates": [
          -87.34643,
          41.59337
        ]
      }
    },
    {
      "type": "Feature",
      "properties": {
        "name": "South Bend",
        "state": "Indiana",
        "population": 101516
      },
      "geometry": {
        "type": "Point",
        "coordinates": [
          -86.25001,
          41.68338
        ]
      }
    },
    {
      "type": "Feature",
      "properties": {
        "name": "Frankfort",
        "state": "Kentucky",
        "population": 27830
      },
      "geometry": {
        "type": "Point",
        "coordinates": [
          -84.87328,
          38.20091
        ]
      }
    },
    {
      "type": "Feature",
      "properties": {
        "name": "Jeffersontown",
        "state": "Kentucky",
        "population": 26946
      },
      "geometry": {
        "type": "Point",
        "coordinates": [
          -85.5644,
          38.19424
        ]
      }
    },
    {
      "type": "Feature",
      "properties": {
        "name": "Nicholasville",
        "state": "Kentucky",
        "population": 29754
      },
      "geometry": {
        "type": "Point",
        "coordinates": [
          -84.573,
          37.88063
        ]
      }
    },
    {
      "type": "Feature",
      "properties": {
        "name": "Richmond",
        "state": "Kentucky",
        "population": 33533
      },
      "geometry": {
        "type": "Point",
        "coordinates": [
          -84.29465,
          37.74786
        ]
      }
    },
    {
      "type": "Feature",
      "properties": {
        "name": "Central",
        "state": "Louisiana",
        "population": 28295
      },
      "geometry": {
        "type": "Point",
        "coordinates": [
          -91.03677,
          30.55435
        ]
      }
    },
    {
      "type": "Feature",
      "properties": {
        "name": "Watertown",
        "state": "South Dakota",
        "population": 22073
      },
      "geometry": {
        "type": "Point",
        "coordinates": [
          -97.11507,
          44.89941
        ]
      }
    },
    {
      "type": "Feature",
      "properties": {
        "name": "Green Bay",
        "state": "Wisconsin",
        "population": 105207
      },
      "geometry": {
        "type": "Point",
        "coordinates": [
          -88.01983,
          44.51916
        ]
      }
    },
    {
      "type": "Feature",
      "properties": {
        "name": "South Milwaukee",
        "state": "Wisconsin",
        "population": 21233
      },
      "geometry": {
        "type": "Point",
        "coordinates": [
          -87.86064,
          42.91057
        ]
      }
    },
    {
      "type": "Feature",
      "properties": {
        "name": "Yuma",
        "state": "Arizona",
        "population": 94139
      },
      "geometry": {
        "type": "Point",
        "coordinates": [
          -114.6244,
          32.72532
        ]
      }
    },
    {
      "type": "Feature",
      "properties": {
        "name": "Aliso Viejo",
        "state": "California",
        "population": 50195
      },
      "geometry": {
        "type": "Point",
        "coordinates": [
          -117.72712,
          33.56504
        ]
      }
    },
    {
      "type": "Feature",
      "properties": {
        "name": "Lynwood",
        "state": "California",
        "population": 71989
      },
      "geometry": {
        "type": "Point",
        "coordinates": [
          -118.21146,
          33.93029
        ]
      }
    },
    {
      "type": "Feature",
      "properties": {
        "name": "Orangevale",
        "state": "California",
        "population": 33960
      },
      "geometry": {
        "type": "Point",
        "coordinates": [
          -121.22578,
          38.67851
        ]
      }
    },
    {
      "type": "Feature",
      "properties": {
        "name": "San Gabriel",
        "state": "California",
        "population": 40424
      },
      "geometry": {
        "type": "Point",
        "coordinates": [
          -118.10583,
          34.09611
        ]
      }
    },
    {
      "type": "Feature",
      "properties": {
        "name": "Pueblo",
        "state": "Colorado",
        "population": 109412
      },
      "geometry": {
        "type": "Point",
        "coordinates": [
          -104.60914,
          38.25445
        ]
      }
    },
    {
      "type": "Feature",
      "properties": {
        "name": "Liberal",
        "state": "Kansas",
        "population": 20746
      },
      "geometry": {
        "type": "Point",
        "coordinates": [
          -100.921,
          37.04308
        ]
      }
    },
    {
      "type": "Feature",
      "properties": {
        "name": "Sparks",
        "state": "Nevada",
        "population": 96094
      },
      "geometry": {
        "type": "Point",
        "coordinates": [
          -119.75269,
          39.53491
        ]
      }
    },
    {
      "type": "Feature",
      "properties": {
        "name": "Midland",
        "state": "Texas",
        "population": 132950
      },
      "geometry": {
        "type": "Point",
        "coordinates": [
          -102.07791,
          31.99735
        ]
      }
    },
    {
      "type": "Feature",
      "properties": {
        "name": "South Jordan",
        "state": "Utah",
        "population": 66648
      },
      "geometry": {
        "type": "Point",
        "coordinates": [
          -111.92966,
          40.56217
        ]
      }
    },
    {
      "type": "Feature",
      "properties": {
        "name": "West Jordan",
        "state": "Utah",
        "population": 111946
      },
      "geometry": {
        "type": "Point",
        "coordinates": [
          -111.9391,
          40.60967
        ]
      }
    },
    {
      "type": "Feature",
      "properties": {
        "name": "Shoreline",
        "state": "Washington",
        "population": 55439
      },
      "geometry": {
        "type": "Point",
        "coordinates": [
          -122.34152,
          47.75565
        ]
      }
    },
    {
      "type": "Feature",
      "properties": {
        "name": "Fort Liberty",
        "state": "North Carolina",
        "population": 29183
      },
      "geometry": {
        "type": "Point",
        "coordinates": [
          -79.00603,
          35.139
        ]
      }
    },
    {
      "type": "Feature",
      "properties": {
        "name": "Chicago Loop",
        "state": "Illinois",
        "population": 33442
      },
      "geometry": {
        "type": "Point",
        "coordinates": [
          -87.6333,
          41.88407
        ]
      }
    },
    {
      "type": "Feature",
      "properties": {
        "name": "Chillum",
        "state": "Maryland",
        "population": 33513
      },
      "geometry": {
        "type": "Point",
        "coordinates": [
          -76.99081,
          38.96372
        ]
      }
    },
    {
      "type": "Feature",
      "properties": {
        "name": "Milford Mill",
        "state": "Maryland",
        "population": 29042
      },
      "geometry": {
        "type": "Point",
        "coordinates": [
          -76.76997,
          39.34788
        ]
      }
    },
    {
      "type": "Feature",
      "properties": {
        "name": "Montgomery Village",
        "state": "Maryland",
        "population": 32032
      },
      "geometry": {
        "type": "Point",
        "coordinates": [
          -77.19526,
          39.17677
        ]
      }
    },
    {
      "type": "Feature",
      "properties": {
        "name": "South Bel Air",
        "state": "Maryland",
        "population": 48828
      },
      "geometry": {
        "type": "Point",
        "coordinates": [
          -76.33746,
          39.53316
        ]
      }
    },
    {
      "type": "Feature",
      "properties": {
        "name": "Oxford",
        "state": "Mississippi",
        "population": 22314
      },
      "geometry": {
        "type": "Point",
        "coordinates": [
          -89.51925,
          34.3665
        ]
      }
    },
    {
      "type": "Feature",
      "properties": {
        "name": "Charlotte",
        "state": "North Carolina",
        "population": 874579
      },
      "geometry": {
        "type": "Point",
        "coordinates": [
          -80.84313,
          35.22709
        ]
      }
    },
    {
      "type": "Feature",
      "properties": {
        "name": "Garner",
        "state": "North Carolina",
        "population": 28053
      },
      "geometry": {
        "type": "Point",
        "coordinates": [
          -78.61417,
          35.71126
        ]
      }
    },
    {
      "type": "Feature",
      "properties": {
        "name": "Cincinnati",
        "state": "Ohio",
        "population": 309317
      },
      "geometry": {
        "type": "Point",
        "coordinates": [
          -84.51439,
          39.12711
        ]
      }
    },
    {
      "type": "Feature",
      "properties": {
        "name": "Hilton Head Island",
        "state": "South Carolina",
        "population": 40512
      },
      "geometry": {
        "type": "Point",
        "coordinates": [
          -80.73816,
          32.19382
        ]
      }
    },
    {
      "type": "Feature",
      "properties": {
        "name": "Rock Hill",
        "state": "South Carolina",
        "population": 71548
      },
      "geometry": {
        "type": "Point",
        "coordinates": [
          -81.02508,
          34.92487
        ]
      }
    },
    {
      "type": "Feature",
      "properties": {
        "name": "Chattanooga",
        "state": "Tennessee",
        "population": 181099
      },
      "geometry": {
        "type": "Point",
        "coordinates": [
          -85.30968,
          35.04563
        ]
      }
    },
    {
      "type": "Feature",
      "properties": {
        "name": "Gallatin",
        "state": "Tennessee",
        "population": 34334
      },
      "geometry": {
        "type": "Point",
        "coordinates": [
          -86.44666,
          36.38838
        ]
      }
    },
    {
      "type": "Feature",
      "properties": {
        "name": "Knoxville",
        "state": "Tennessee",
        "population": 185291
      },
      "geometry": {
        "type": "Point",
        "coordinates": [
          -83.92074,
          35.96064
        ]
      }
    },
    {
      "type": "Feature",
      "properties": {
        "name": "Benbrook",
        "state": "Texas",
        "population": 22629
      },
      "geometry": {
        "type": "Point",
        "coordinates": [
          -97.46058,
          32.67319
        ]
      }
    },
    {
      "type": "Feature",
      "properties": {
        "name": "Brushy Creek",
        "state": "Texas",
        "population": 21764
      },
      "geometry": {
        "type": "Point",
        "coordinates": [
          -97.73973,
          30.51353
        ]
      }
    },
    {
      "type": "Feature",
      "properties": {
        "name": "Georgetown",
        "state": "Texas",
        "population": 63716
      },
      "geometry": {
        "type": "Point",
        "coordinates": [
          -97.67723,
          30.63269
        ]
      }
    },
    {
      "type": "Feature",
      "properties": {
        "name": "League City",
        "state": "Texas",
        "population": 98312
      },
      "geometry": {
        "type": "Point",
        "coordinates": [
          -95.09493,
          29.50745
        ]
      }
    },
    {
      "type": "Feature",
      "properties": {
        "name": "Mesquite",
        "state": "Texas",
        "population": 144788
      },
      "geometry": {
        "type": "Point",
        "coordinates": [
          -96.59916,
          32.7668
        ]
      }
    },
    {
      "type": "Feature",
      "properties": {
        "name": "Christiansburg",
        "state": "Virginia",
        "population": 21943
      },
      "geometry": {
        "type": "Point",
        "coordinates": [
          -80.40894,
          37.12985
        ]
      }
    },
    {
      "type": "Feature",
      "properties": {
        "name": "Sterling",
        "state": "Virginia",
        "population": 27822
      },
      "geometry": {
        "type": "Point",
        "coordinates": [
          -77.4286,
          39.00622
        ]
      }
    },
    {
      "type": "Feature",
      "properties": {
        "name": "Tuckahoe",
        "state": "Virginia",
        "population": 44990
      },
      "geometry": {
        "type": "Point",
        "coordinates": [
          -77.55638,
          37.59015
        ]
      }
    },
    {
      "type": "Feature",
      "properties": {
        "name": "Winchester",
        "state": "Virginia",
        "population": 27284
      },
      "geometry": {
        "type": "Point",
        "coordinates": [
          -78.16333,
          39.18566
        ]
      }
    },
    {
      "type": "Feature",
      "properties": {
        "name": "North Andover",
        "state": "Massachusetts",
        "population": 28222
      },
      "geometry": {
        "type": "Point",
        "coordinates": [
          -71.13506,
          42.6987
        ]
      }
    },
    {
      "type": "Feature",
      "properties": {
        "name": "New London",
        "state": "Connecticut",
        "population": 27179
      },
      "geometry": {
        "type": "Point",
        "coordinates": [
          -72.09952,
          41.35565
        ]
      }
    },
    {
      "type": "Feature",
      "properties": {
        "name": "Aurora",
        "state": "Illinois",
        "population": 200661
      },
      "geometry": {
        "type": "Point",
        "coordinates": [
          -88.32007,
          41.76058
        ]
      }
    },
    {
      "type": "Feature",
      "properties": {
        "name": "Burbank",
        "state": "Illinois",
        "population": 29128
      },
      "geometry": {
        "type": "Point",
        "coordinates": [
          -87.7795,
          41.73392
        ]
      }
    },
    {
      "type": "Feature",
      "properties": {
        "name": "Lisle",
        "state": "Illinois",
        "population": 22964
      },
      "geometry": {
        "type": "Point",
        "coordinates": [
          -88.07479,
          41.80114
        ]
      }
    },
    {
      "type": "Feature",
      "properties": {
        "name": "New City",
        "state": "Illinois",
        "population": 40997
      },
      "geometry": {
        "type": "Point",
        "coordinates": [
          -87.65644,
          41.80753
        ]
      }
    },
    {
      "type": "Feature",
      "properties": {
        "name": "Birmingham",
        "state": "Michigan",
        "population": 20857
      },
      "geometry": {
        "type": "Point",
        "coordinates": [
          -83.21132,
          42.5467
        ]
      }
    },
    {
      "type": "Feature",
      "properties": {
        "name": "Midland",
        "state": "Michigan",
        "population": 42200
      },
      "geometry": {
        "type": "Point",
        "coordinates": [
          -84.24721,
          43.61558
        ]
      }
    },
    {
      "type": "Feature",
      "properties": {
        "name": "Carteret",
        "state": "New Jersey",
        "population": 24170
      },
      "geometry": {
        "type": "Point",
        "coordinates": [
          -74.2282,
          40.57733
        ]
      }
    },
    {
      "type": "Feature",
      "properties": {
        "name": "Kearny",
        "state": "New Jersey",
        "population": 42137
      },
      "geometry": {
        "type": "Point",
        "coordinates": [
          -74.14542,
          40.76843
        ]
      }
    },
    {
      "type": "Feature",
      "properties": {
        "name": "Summit",
        "state": "New Jersey",
        "population": 22074
      },
      "geometry": {
        "type": "Point",
        "coordinates": [
          -74.36468,
          40.71562
        ]
      }
    },
    {
      "type": "Feature",
      "properties": {
        "name": "West Orange",
        "state": "New Jersey",
        "population": 48131
      },
      "geometry": {
        "type": "Point",
        "coordinates": [
          -74.23904,
          40.79871
        ]
      }
    },
    {
      "type": "Feature",
      "properties": {
        "name": "Auburn",
        "state": "New York",
        "population": 26985
      },
      "geometry": {
        "type": "Point",
        "coordinates": [
          -76.56605,
          42.93173
        ]
      }
    },
    {
      "type": "Feature",
      "properties": {
        "name": "Buffalo",
        "state": "New York",
        "population": 258071
      },
      "geometry": {
        "type": "Point",
        "coordinates": [
          -78.87837,
          42.88645
        ]
      }
    },
    {
      "type": "Feature",
      "properties": {
        "name": "Canarsie",
        "state": "New York",
        "population": 87366
      },
      "geometry": {
        "type": "Point",
        "coordinates": [
          -73.90069,
          40.64372
        ]
      }
    },
    {
      "type": "Feature",
      "properties": {
        "name": "Dyker Heights",
        "state": "New York",
        "population": 34399
      },
      "geometry": {
        "type": "Point",
        "coordinates": [
          -74.00958,
          40.62149
        ]
      }
    },
    {
      "type": "Feature",
      "properties": {
        "name": "Harrison",
        "state": "New York",
        "population": 28348
      },
      "geometry": {
        "type": "Point",
        "coordinates": [
          -73.71263,
          40.96899
        ]
      }
    },
    {
      "type": "Feature",
      "properties": {
        "name": "Laurelton",
        "state": "New York",
        "population": 21053
      },
      "geometry": {
        "type": "Point",
        "coordinates": [
          -73.74659,
          40.67019
        ]
      }
    },
    {
      "type": "Feature",
      "properties": {
        "name": "Manhattan",
        "state": "New York",
        "population": 1487536
      },
      "geometry": {
        "type": "Point",
        "coordinates": [
          -73.96625,
          40.78343
        ]
      }
    },
    {
      "type": "Feature",
      "properties": {
        "name": "Gahanna",
        "state": "Ohio",
        "population": 34590
      },
      "geometry": {
        "type": "Point",
        "coordinates": [
          -82.87934,
          40.01923
        ]
      }
    },
    {
      "type": "Feature",
      "properties": {
        "name": "Medina",
        "state": "Ohio",
        "population": 26339
      },
      "geometry": {
        "type": "Point",
        "coordinates": [
          -81.86375,
          41.13839
        ]
      }
    },
    {
      "type": "Feature",
      "properties": {
        "name": "Oregon",
        "state": "Ohio",
        "population": 20102
      },
      "geometry": {
        "type": "Point",
        "coordinates": [
          -83.48688,
          41.64366
        ]
      }
    },
    {
      "type": "Feature",
      "properties": {
        "name": "Bensalem",
        "state": "Pennsylvania",
        "population": 60427
      },
      "geometry": {
        "type": "Point",
        "coordinates": [
          -74.95128,
          40.10455
        ]
      }
    },
    {
      "type": "Feature",
      "properties": {
        "name": "Easton",
        "state": "Pennsylvania",
        "population": 26915
      },
      "geometry": {
        "type": "Point",
        "coordinates": [
          -75.22073,
          40.68843
        ]
      }
    },
    {
      "type": "Feature",
      "properties": {
        "name": "Eau Claire",
        "state": "Wisconsin",
        "population": 67778
      },
      "geometry": {
        "type": "Point",
        "coordinates": [
          -91.49849,
          44.81135
        ]
      }
    },
    {
      "type": "Feature",
      "properties": {
        "name": "Wauwatosa",
        "state": "Wisconsin",
        "population": 47614
      },
      "geometry": {
        "type": "Point",
        "coordinates": [
          -88.00759,
          43.04946
        ]
      }
    },
    {
      "type": "Feature",
      "properties": {
        "name": "Casa Grande",
        "state": "Arizona",
        "population": 51460
      },
      "geometry": {
        "type": "Point",
        "coordinates": [
          -111.75735,
          32.8795
        ]
      }
    },
    {
      "type": "Feature",
      "properties": {
        "name": "El Mirage",
        "state": "Arizona",
        "population": 33935
      },
      "geometry": {
        "type": "Point",
        "coordinates": [
          -112.3246,
          33.61309
        ]
      }
    },
    {
      "type": "Feature",
      "properties": {
        "name": "Peoria",
        "state": "Arizona",
        "population": 190985
      },
      "geometry": {
        "type": "Point",
        "coordinates": [
          -112.23738,
          33.5806
        ]
      }
    },
    {
      "type": "Feature",
      "properties": {
        "name": "Bakersfield",
        "state": "California",
        "population": 373640
      },
      "geometry": {
        "type": "Point",
        "coordinates": [
          -119.01871,
          35.37329
        ]
      }
    },
    {
      "type": "Feature",
      "properties": {
        "name": "Beverly Hills",
        "state": "California",
        "population": 34869
      },
      "geometry": {
        "type": "Point",
        "coordinates": [
          -118.40036,
          34.07362
        ]
      }
    },
    {
      "type": "Feature",
      "properties": {
        "name": "Chino Hills",
        "state": "California",
        "population": 78309
      },
      "geometry": {
        "type": "Point",
        "coordinates": [
          -117.75888,
          33.9938
        ]
      }
    },
    {
      "type": "Feature",
      "properties": {
        "name": "El Cajon",
        "state": "California",
        "population": 103679
      },
      "geometry": {
        "type": "Point",
        "coordinates": [
          -116.96253,
          32.79477
        ]
      }
    },
    {
      "type": "Feature",
      "properties": {
        "name": "Hesperia",
        "state": "California",
        "population": 93295
      },
      "geometry": {
        "type": "Point",
        "coordinates": [
          -117.30088,
          34.42639
        ]
      }
    },
    {
      "type": "Feature",
      "properties": {
        "name": "Irvine",
        "state": "California",
        "population": 256927
      },
      "geometry": {
        "type": "Point",
        "coordinates": [
          -117.82311,
          33.66946
        ]
      }
    },
    {
      "type": "Feature",
      "properties": {
        "name": "Laguna Hills",
        "state": "California",
        "population": 31748
      },
      "geometry": {
        "type": "Point",
        "coordinates": [
          -117.71283,
          33.61252
        ]
      }
    },
    {
      "type": "Feature",
      "properties": {
        "name": "Los Banos",
        "state": "California",
        "population": 37457
      },
      "geometry": {
        "type": "Point",
        "coordinates": [
          -120.84992,
          37.05828
        ]
      }
    },
    {
      "type": "Feature",
      "properties": {
        "name": "San Dimas",
        "state": "California",
        "population": 34630
      },
      "geometry": {
        "type": "Point",
        "coordinates": [
          -117.80673,
          34.10668
        ]
      }
    },
    {
      "type": "Feature",
      "properties": {
        "name": "San Rafael",
        "state": "California",
        "population": 59162
      },
      "geometry": {
        "type": "Point",
        "coordinates": [
          -122.53109,
          37.97353
        ]
      }
    },
    {
      "type": "Feature",
      "properties": {
        "name": "San Ramon",
        "state": "California",
        "population": 76134
      },
      "geometry": {
        "type": "Point",
        "coordinates": [
          -121.97802,
          37.77993
        ]
      }
    },
    {
      "type": "Feature",
      "properties": {
        "name": "Santa Monica",
        "state": "California",
        "population": 93220
      },
      "geometry": {
        "type": "Point",
        "coordinates": [
          -118.49138,
          34.01949
        ]
      }
    },
    {
      "type": "Feature",
      "properties": {
        "name": "Temecula",
        "state": "California",
        "population": 110003
      },
      "geometry": {
        "type": "Point",
        "coordinates": [
          -117.14836,
          33.49364
        ]
      }
    },
    {
      "type": "Feature",
      "properties": {
        "name": "Tracy",
        "state": "California",
        "population": 87075
      },
      "geometry": {
        "type": "Point",
        "coordinates": [
          -121.42618,
          37.73987
        ]
      }
    },
    {
      "type": "Feature",
      "properties": {
        "name": "Dodge City",
        "state": "Kansas",
        "population": 27912
      },
      "geometry": {
        "type": "Point",
        "coordinates": [
          -100.01708,
          37.7528
        ]
      }
    },
    {
      "type": "Feature",
      "properties": {
        "name": "Socorro Mission Number 1 Colonia",
        "state": "Texas",
        "population": 28637
      },
      "geometry": {
        "type": "Point",
        "coordinates": [
          -106.29054,
          31.63622
        ]
      }
    },
    {
      "type": "Feature",
      "properties": {
        "name": "Saint George",
        "state": "Utah",
        "population": 72897
      },
      "geometry": {
        "type": "Point",
        "coordinates": [
          -113.58412,
          37.10415
        ]
      }
    },
    {
      "type": "Feature",
      "properties": {
        "name": "Coeur d'Alene",
        "state": "Idaho",
        "population": 49122
      },
      "geometry": {
        "type": "Point",
        "coordinates": [
          -116.78047,
          47.67768
        ]
      }
    },
    {
      "type": "Feature",
      "properties": {
        "name": "Billings",
        "state": "Montana",
        "population": 110263
      },
      "geometry": {
        "type": "Point",
        "coordinates": [
          -108.50069,
          45.78329
        ]
      }
    },
    {
      "type": "Feature",
      "properties": {
        "name": "Rapid City",
        "state": "South Dakota",
        "population": 73569
      },
      "geometry": {
        "type": "Point",
        "coordinates": [
          -103.23101,
          44.08054
        ]
      }
    },
    {
      "type": "Feature",
      "properties": {
        "name": "Kenmore",
        "state": "Washington",
        "population": 22030
      },
      "geometry": {
        "type": "Point",
        "coordinates": [
          -122.24401,
          47.75732
        ]
      }
    },
    {
      "type": "Feature",
      "properties": {
        "name": "Maple Valley",
        "state": "Washington",
        "population": 25686
      },
      "geometry": {
        "type": "Point",
        "coordinates": [
          -122.04641,
          47.39272
        ]
      }
    },
    {
      "type": "Feature",
      "properties": {
        "name": "Moses Lake",
        "state": "Washington",
        "population": 22082
      },
      "geometry": {
        "type": "Point",
        "coordinates": [
          -119.27808,
          47.13014
        ]
      }
    },
    {
      "type": "Feature",
      "properties": {
        "name": "Redmond",
        "state": "Washington",
        "population": 60598
      },
      "geometry": {
        "type": "Point",
        "coordinates": [
          -122.12151,
          47.67399
        ]
      }
    },
    {
      "type": "Feature",
      "properties": {
        "name": "Yakima",
        "state": "Washington",
        "population": 93701
      },
      "geometry": {
        "type": "Point",
        "coordinates": [
          -120.5059,
          46.60207
        ]
      }
    },
    {
      "type": "Feature",
      "properties": {
        "name": "Arden-Arcade",
        "state": "California",
        "population": 92186
      },
      "geometry": {
        "type": "Point",
        "coordinates": [
          -121.37854,
          38.6025
        ]
      }
    },
    {
      "type": "Feature",
      "properties": {
        "name": "South Windsor",
        "state": "Connecticut",
        "population": 24412
      },
      "geometry": {
        "type": "Point",
        "coordinates": [
          -72.6212,
          41.82371
        ]
      }
    },
    {
      "type": "Feature",
      "properties": {
        "name": "Needham",
        "state": "Massachusetts",
        "population": 28886
      },
      "geometry": {
        "type": "Point",
        "coordinates": [
          -71.23283,
          42.28343
        ]
      }
    },
    {
      "type": "Feature",
      "properties": {
        "name": "Lafayette",
        "state": "Louisiana",
        "population": 127657
      },
      "geometry": {
        "type": "Point",
        "coordinates": [
          -92.01984,
          30.22409
        ]
      }
    },
    {
      "type": "Feature",
      "properties": {
        "name": "Prichard",
        "state": "Alabama",
        "population": 22351
      },
      "geometry": {
        "type": "Point",
        "coordinates": [
          -88.07889,
          30.7388
        ]
      }
    },
    {
      "type": "Feature",
      "properties": {
        "name": "Dover",
        "state": "Delaware",
        "population": 37522
      },
      "geometry": {
        "type": "Point",
        "coordinates": [
          -75.52437,
          39.15817
        ]
      }
    },
    {
      "type": "Feature",
      "properties": {
        "name": "Lauderdale Lakes",
        "state": "Florida",
        "population": 34796
      },
      "geometry": {
        "type": "Point",
        "coordinates": [
          -80.20838,
          26.16647
        ]
      }
    },
    {
      "type": "Feature",
      "properties": {
        "name": "Palmetto Bay",
        "state": "Florida",
        "population": 24439
      },
      "geometry": {
        "type": "Point",
        "coordinates": [
          -80.32477,
          25.62177
        ]
      }
    },
    {
      "type": "Feature",
      "properties": {
        "name": "Poinciana",
        "state": "Florida",
        "population": 53193
      },
      "geometry": {
        "type": "Point",
        "coordinates": [
          -81.45841,
          28.14029
        ]
      }
    },
    {
      "type": "Feature",
      "properties": {
        "name": "South Miami Heights",
        "state": "Florida",
        "population": 36770
      },
      "geometry": {
        "type": "Point",
        "coordinates": [
          -80.38061,
          25.59761
        ]
      }
    },
    {
      "type": "Feature",
      "properties": {
        "name": "University Park",
        "state": "Florida",
        "population": 26995
      },
      "geometry": {
        "type": "Point",
        "coordinates": [
          -80.36755,
          25.74649
        ]
      }
    },
    {
      "type": "Feature",
      "properties": {
        "name": "Athens",
        "state": "Georgia",
        "population": 127315
      },
      "geometry": {
        "type": "Point",
        "coordinates": [
          -83.37794,
          33.96095
        ]
      }
    },
    {
      "type": "Feature",
      "properties": {
        "name": "Smyrna",
        "state": "Georgia",
        "population": 56146
      },
      "geometry": {
        "type": "Point",
        "coordinates": [
          -84.51438,
          33.88399
        ]
      }
    },
    {
      "type": "Feature",
      "properties": {
        "name": "Carbondale",
        "state": "Illinois",
        "population": 26399
      },
      "geometry": {
        "type": "Point",
        "coordinates": [
          -89.21675,
          37.72727
        ]
      }
    },
    {
      "type": "Feature",
      "properties": {
        "name": "Olathe",
        "state": "Kansas",
        "population": 134305
      },
      "geometry": {
        "type": "Point",
        "coordinates": [
          -94.81913,
          38.8814
        ]
      }
    },
    {
      "type": "Feature",
      "properties": {
        "name": "Hagerstown",
        "state": "Maryland",
        "population": 40432
      },
      "geometry": {
        "type": "Point",
        "coordinates": [
          -77.71999,
          39.64176
        ]
      }
    },
    {
      "type": "Feature",
      "properties": {
        "name": "Vicksburg",
        "state": "Mississippi",
        "population": 23131
      },
      "geometry": {
        "type": "Point",
        "coordinates": [
          -90.87788,
          32.35265
        ]
      }
    },
    {
      "type": "Feature",
      "properties": {
        "name": "Riverside",
        "state": "Ohio",
        "population": 24972
      },
      "geometry": {
        "type": "Point",
        "coordinates": [
          -84.1241,
          39.77978
        ]
      }
    },
    {
      "type": "Feature",
      "properties": {
        "name": "Collierville",
        "state": "Tennessee",
        "population": 48863
      },
      "geometry": {
        "type": "Point",
        "coordinates": [
          -89.66453,
          35.04204
        ]
      }
    },
    {
      "type": "Feature",
      "properties": {
        "name": "Cookeville",
        "state": "Tennessee",
        "population": 32113
      },
      "geometry": {
        "type": "Point",
        "coordinates": [
          -85.50164,
          36.16284
        ]
      }
    },
    {
      "type": "Feature",
      "properties": {
        "name": "Alvin",
        "state": "Texas",
        "population": 25791
      },
      "geometry": {
        "type": "Point",
        "coordinates": [
          -95.2441,
          29.42385
        ]
      }
    },
    {
      "type": "Feature",
      "properties": {
        "name": "Grapevine",
        "state": "Texas",
        "population": 51404
      },
      "geometry": {
        "type": "Point",
        "coordinates": [
          -97.07807,
          32.93429
        ]
      }
    },
    {
      "type": "Feature",
      "properties": {
        "name": "Mission Bend",
        "state": "Texas",
        "population": 36501
      },
      "geometry": {
        "type": "Point",
        "coordinates": [
          -95.66495,
          29.69384
        ]
      }
    },
    {
      "type": "Feature",
      "properties": {
        "name": "Fredericksburg",
        "state": "Virginia",
        "population": 28118
      },
      "geometry": {
        "type": "Point",
        "coordinates": [
          -77.46054,
          38.30318
        ]
      }
    },
    {
      "type": "Feature",
      "properties": {
        "name": "Salem",
        "state": "Virginia",
        "population": 25432
      },
      "geometry": {
        "type": "Point",
        "coordinates": [
          -80.05476,
          37.29347
        ]
      }
    },
    {
      "type": "Feature",
      "properties": {
        "name": "West Lynchburg",
        "state": "Virginia",
        "population": 65517
      },
      "geometry": {
        "type": "Point",
        "coordinates": [
          -79.17808,
          37.4032
        ]
      }
    },
    {
      "type": "Feature",
      "properties": {
        "name": "Waterbury",
        "state": "Connecticut",
        "population": 108802
      },
      "geometry": {
        "type": "Point",
        "coordinates": [
          -73.0515,
          41.55815
        ]
      }
    },
    {
      "type": "Feature",
      "properties": {
        "name": "Marion",
        "state": "Iowa",
        "population": 37330
      },
      "geometry": {
        "type": "Point",
        "coordinates": [
          -91.59768,
          42.03417
        ]
      }
    },
    {
      "type": "Feature",
      "properties": {
        "name": "Crest Hill",
        "state": "Illinois",
        "population": 21153
      },
      "geometry": {
        "type": "Point",
        "coordinates": [
          -88.09867,
          41.55475
        ]
      }
    },
    {
      "type": "Feature",
      "properties": {
        "name": "East Chicago",
        "state": "Indiana",
        "population": 28699
      },
      "geometry": {
        "type": "Point",
        "coordinates": [
          -87.45476,
          41.6392
        ]
      }
    },
    {
      "type": "Feature",
      "properties": {
        "name": "Amherst",
        "state": "Massachusetts",
        "population": 39833
      },
      "geometry": {
        "type": "Point",
        "coordinates": [
          -72.51852,
          42.36723
        ]
      }
    },
    {
      "type": "Feature",
      "properties": {
        "name": "Norwood",
        "state": "Massachusetts",
        "population": 28602
      },
      "geometry": {
        "type": "Point",
        "coordinates": [
          -71.1995,
          42.19454
        ]
      }
    },
    {
      "type": "Feature",
      "properties": {
        "name": "Pittsfield",
        "state": "Massachusetts",
        "population": 43303
      },
      "geometry": {
        "type": "Point",
        "coordinates": [
          -73.24538,
          42.45008
        ]
      }
    },
    {
      "type": "Feature",
      "properties": {
        "name": "Somerville",
        "state": "Massachusetts",
        "population": 80318
      },
      "geometry": {
        "type": "Point",
        "coordinates": [
          -71.0995,
          42.3876
        ]
      }
    },
    {
      "type": "Feature",
      "properties": {
        "name": "Stoughton",
        "state": "Massachusetts",
        "population": 26915
      },
      "geometry": {
        "type": "Point",
        "coordinates": [
          -71.10227,
          42.1251
        ]
      }
    },
    {
      "type": "Feature",
      "properties": {
        "name": "Forest Hills",
        "state": "Michigan",
        "population": 25867
      },
      "geometry": {
        "type": "Point",
        "coordinates": [
          -85.48975,
          42.95947
        ]
      }
    },
    {
      "type": "Feature",
      "properties": {
        "name": "Wyandotte",
        "state": "Michigan",
        "population": 25156
      },
      "geometry": {
        "type": "Point",
        "coordinates": [
          -83.14992,
          42.21421
        ]
      }
    },
    {
      "type": "Feature",
      "properties": {
        "name": "Edina",
        "state": "Minnesota",
        "population": 50138
      },
      "geometry": {
        "type": "Point",
        "coordinates": [
          -93.34995,
          44.88969
        ]
      }
    },
    {
      "type": "Feature",
      "properties": {
        "name": "Lakeville",
        "state": "Minnesota",
        "population": 60633
      },
      "geometry": {
        "type": "Point",
        "coordinates": [
          -93.24272,
          44.64969
        ]
      }
    },
    {
      "type": "Feature",
      "properties": {
        "name": "Rochester",
        "state": "Minnesota",
        "population": 112225
      },
      "geometry": {
        "type": "Point",
        "coordinates": [
          -92.4699,
          44.02163
        ]
      }
    },
    {
      "type": "Feature",
      "properties": {
        "name": "Rochester",
        "state": "New Hampshire",
        "population": 30038
      },
      "geometry": {
        "type": "Point",
        "coordinates": [
          -70.97562,
          43.30453
        ]
      }
    },
    {
      "type": "Feature",
      "properties": {
        "name": "New Brunswick",
        "state": "New Jersey",
        "population": 57035
      },
      "geometry": {
        "type": "Point",
        "coordinates": [
          -74.45182,
          40.48622
        ]
      }
    },
    {
      "type": "Feature",
      "properties": {
        "name": "Commack",
        "state": "New York",
        "population": 36124
      },
      "geometry": {
        "type": "Point",
        "coordinates": [
          -73.29289,
          40.84288
        ]
      }
    },
    {
      "type": "Feature",
      "properties": {
        "name": "Coram",
        "state": "New York",
        "population": 39113
      },
      "geometry": {
        "type": "Point",
        "coordinates": [
          -73.00149,
          40.86871
        ]
      }
    },
    {
      "type": "Feature",
      "properties": {
        "name": "East Amherst",
        "state": "New York",
        "population": 24914
      },
      "geometry": {
        "type": "Point",
        "coordinates": [
          -78.6967,
          43.01839
        ]
      }
    },
    {
      "type": "Feature",
      "properties": {
        "name": "East Meadow",
        "state": "New York",
        "population": 38132
      },
      "geometry": {
        "type": "Point",
        "coordinates": [
          -73.55902,
          40.71399
        ]
      }
    },
    {
      "type": "Feature",
      "properties": {
        "name": "Elmhurst",
        "state": "New York",
        "population": 113364
      },
      "geometry": {
        "type": "Point",
        "coordinates": [
          -73.87791,
          40.73649
        ]
      }
    },
    {
      "type": "Feature",
      "properties": {
        "name": "Smithtown",
        "state": "New York",
        "population": 26470
      },
      "geometry": {
        "type": "Point",
        "coordinates": [
          -73.20067,
          40.85593
        ]
      }
    },
    {
      "type": "Feature",
      "properties": {
        "name": "Tremont",
        "state": "New York",
        "population": 22870
      },
      "geometry": {
        "type": "Point",
        "coordinates": [
          -73.90569,
          40.84954
        ]
      }
    },
    {
      "type": "Feature",
      "properties": {
        "name": "Wakefield",
        "state": "New York",
        "population": 52201
      },
      "geometry": {
        "type": "Point",
        "coordinates": [
          -73.85236,
          40.89788
        ]
      }
    },
    {
      "type": "Feature",
      "properties": {
        "name": "Elyria",
        "state": "Ohio",
        "population": 53775
      },
      "geometry": {
        "type": "Point",
        "coordinates": [
          -82.10765,
          41.36838
        ]
      }
    },
    {
      "type": "Feature",
      "properties": {
        "name": "Glenville",
        "state": "Ohio",
        "population": 23559
      },
      "geometry": {
        "type": "Point",
        "coordinates": [
          -81.61735,
          41.53338
        ]
      }
    },
    {
      "type": "Feature",
      "properties": {
        "name": "Abington",
        "state": "Pennsylvania",
        "population": 55310
      },
      "geometry": {
        "type": "Point",
        "coordinates": [
          -75.11795,
          40.12067
        ]
      }
    },
    {
      "type": "Feature",
      "properties": {
        "name": "Lancaster",
        "state": "Pennsylvania",
        "population": 59339
      },
      "geometry": {
        "type": "Point",
        "coordinates": [
          -76.30551,
          40.03788
        ]
      }
    },
    {
      "type": "Feature",
      "properties": {
        "name": "Mount Lebanon",
        "state": "Pennsylvania",
        "population": 32730
      },
      "geometry": {
        "type": "Point",
        "coordinates": [
          -80.0495,
          40.35535
        ]
      }
    },
    {
      "type": "Feature",
      "properties": {
        "name": "Paducah",
        "state": "Kentucky",
        "population": 24864
      },
      "geometry": {
        "type": "Point",
        "coordinates": [
          -88.60005,
          37.08339
        ]
      }
    },
    {
      "type": "Feature",
      "properties": {
        "name": "Homewood",
        "state": "Alabama",
        "population": 25708
      },
      "geometry": {
        "type": "Point",
        "coordinates": [
          -86.80082,
          33.47177
        ]
      }
    },
    {
      "type": "Feature",
      "properties": {
        "name": "Wilmington",
        "state": "Delaware",
        "population": 71948
      },
      "geometry": {
        "type": "Point",
        "coordinates": [
          -75.54659,
          39.74595
        ]
      }
    },
    {
      "type": "Feature",
      "properties": {
        "name": "Buenaventura Lakes",
        "state": "Florida",
        "population": 26079
      },
      "geometry": {
        "type": "Point",
        "coordinates": [
          -81.35313,
          28.33584
        ]
      }
    },
    {
      "type": "Feature",
      "properties": {
        "name": "Golden Glades",
        "state": "Florida",
        "population": 33145
      },
      "geometry": {
        "type": "Point",
        "coordinates": [
          -80.20033,
          25.91176
        ]
      }
    },
    {
      "type": "Feature",
      "properties": {
        "name": "Kendale Lakes",
        "state": "Florida",
        "population": 56148
      },
      "geometry": {
        "type": "Point",
        "coordinates": [
          -80.407,
          25.70816
        ]
      }
    },
    {
      "type": "Feature",
      "properties": {
        "name": "Palm City",
        "state": "Florida",
        "population": 23120
      },
      "geometry": {
        "type": "Point",
        "coordinates": [
          -80.26616,
          27.16783
        ]
      }
    },
    {
      "type": "Feature",
      "properties": {
        "name": "Temple Terrace",
        "state": "Florida",
        "population": 25731
      },
      "geometry": {
        "type": "Point",
        "coordinates": [
          -82.38926,
          28.0353
        ]
      }
    },
    {
      "type": "Feature",
      "properties": {
        "name": "Lenexa",
        "state": "Kansas",
        "population": 52490
      },
      "geometry": {
        "type": "Point",
        "coordinates": [
          -94.73357,
          38.95362
        ]
      }
    },
    {
      "type": "Feature",
      "properties": {
        "name": "Glendale",
        "state": "Arizona",
        "population": 240126
      },
      "geometry": {
        "type": "Point",
        "coordinates": [
          -112.18599,
          33.53865
        ]
      }
    },
    {
      "type": "Feature",
      "properties": {
        "name": "San Luis",
        "state": "Arizona",
        "population": 31520
      },
      "geometry": {
        "type": "Point",
        "coordinates": [
          -114.78218,
          32.487
        ]
      }
    },
    {
      "type": "Feature",
      "properties": {
        "name": "Dublin",
        "state": "California",
        "population": 57721
      },
      "geometry": {
        "type": "Point",
        "coordinates": [
          -121.93579,
          37.70215
        ]
      }
    },
    {
      "type": "Feature",
      "properties": {
        "name": "El Monte",
        "state": "California",
        "population": 116732
      },
      "geometry": {
        "type": "Point",
        "coordinates": [
          -118.02757,
          34.06862
        ]
      }
    },
    {
      "type": "Feature",
      "properties": {
        "name": "Lakewood",
        "state": "California",
        "population": 81611
      },
      "geometry": {
        "type": "Point",
        "coordinates": [
          -118.13396,
          33.85363
        ]
      }
    },
    {
      "type": "Feature",
      "properties": {
        "name": "Ontario",
        "state": "California",
        "population": 171214
      },
      "geometry": {
        "type": "Point",
        "coordinates": [
          -117.65089,
          34.06334
        ]
      }
    },
    {
      "type": "Feature",
      "properties": {
        "name": "Rubidoux",
        "state": "California",
        "population": 34280
      },
      "geometry": {
        "type": "Point",
        "coordinates": [
          -117.4056,
          33.99613
        ]
      }
    },
    {
      "type": "Feature",
      "properties": {
        "name": "San Juan Capistrano",
        "state": "California",
        "population": 36454
      },
      "geometry": {
        "type": "Point",
        "coordinates": [
          -117.66255,
          33.50169
        ]
      }
    },
    {
      "type": "Feature",
      "properties": {
        "name": "Santee",
        "state": "California",
        "population": 57787
      },
      "geometry": {
        "type": "Point",
        "coordinates": [
          -116.97392,
          32.83838
        ]
      }
    },
    {
      "type": "Feature",
      "properties": {
        "name": "West Carson",
        "state": "California",
        "population": 21699
      },
      "geometry": {
        "type": "Point",
        "coordinates": [
          -118.29257,
          33.82168
        ]
      }
    },
    {
      "type": "Feature",
      "properties": {
        "name": "Willowbrook",
        "state": "California",
        "population": 35983
      },
      "geometry": {
        "type": "Point",
        "coordinates": [
          -118.25507,
          33.91696
        ]
      }
    },
    {
      "type": "Feature",
      "properties": {
        "name": "Alhambra",
        "state": "Arizona",
        "population": 127764
      },
      "geometry": {
        "type": "Point",
        "coordinates": [
          -112.13432,
          33.49838
        ]
      }
    },
    {
      "type": "Feature",
      "properties": {
        "name": "Boulder",
        "state": "Colorado",
        "population": 107349
      },
      "geometry": {
        "type": "Point",
        "coordinates": [
          -105.27055,
          40.01499
        ]
      }
    },
    {
      "type": "Feature",
      "properties": {
        "name": "Elko",
        "state": "Nevada",
        "population": 20279
      },
      "geometry": {
        "type": "Point",
        "coordinates": [
          -115.76312,
          40.83242
        ]
      }
    },
    {
      "type": "Feature",
      "properties": {
        "name": "Roseburg",
        "state": "Oregon",
        "population": 22114
      },
      "geometry": {
        "type": "Point",
        "coordinates": [
          -123.34174,
          43.2165
        ]
      }
    },
    {
      "type": "Feature",
      "properties": {
        "name": "Wilsonville",
        "state": "Oregon",
        "population": 22729
      },
      "geometry": {
        "type": "Point",
        "coordinates": [
          -122.77371,
          45.29984
        ]
      }
    },
    {
      "type": "Feature",
      "properties": {
        "name": "Layton",
        "state": "Utah",
        "population": 74143
      },
      "geometry": {
        "type": "Point",
        "coordinates": [
          -111.97105,
          41.06022
        ]
      }
    },
    {
      "type": "Feature",
      "properties": {
        "name": "Lehi",
        "state": "Utah",
        "population": 58486
      },
      "geometry": {
        "type": "Point",
        "coordinates": [
          -111.85077,
          40.39162
        ]
      }
    },
    {
      "type": "Feature",
      "properties": {
        "name": "Issaquah",
        "state": "Washington",
        "population": 36081
      },
      "geometry": {
        "type": "Point",
        "coordinates": [
          -122.03262,
          47.5301
        ]
      }
    },
    {
      "type": "Feature",
      "properties": {
        "name": "Mountlake Terrace",
        "state": "Washington",
        "population": 20989
      },
      "geometry": {
        "type": "Point",
        "coordinates": [
          -122.30874,
          47.78815
        ]
      }
    },
    {
      "type": "Feature",
      "properties": {
        "name": "Silver Firs",
        "state": "Washington",
        "population": 20891
      },
      "geometry": {
        "type": "Point",
        "coordinates": [
          -122.1551,
          47.86602
        ]
      }
    },
    {
      "type": "Feature",
      "properties": {
        "name": "St. Charles",
        "state": "Maryland",
        "population": 33379
      },
      "geometry": {
        "type": "Point",
        "coordinates": [
          -76.92478,
          38.60728
        ]
      }
    },
    {
      "type": "Feature",
      "properties": {
        "name": "East Lake-Orient Park",
        "state": "Florida",
        "population": 22753
      },
      "geometry": {
        "type": "Point",
        "coordinates": [
          -82.37878,
          27.98269
        ]
      }
    },
    {
      "type": "Feature",
      "properties": {
        "name": "Greater Northdale",
        "state": "Florida",
        "population": 22079
      },
      "geometry": {
        "type": "Point",
        "coordinates": [
          -82.52594,
          28.10545
        ]
      }
    },
    {
      "type": "Feature",
      "properties": {
        "name": "Candler-McAfee",
        "state": "Georgia",
        "population": 23025
      },
      "geometry": {
        "type": "Point",
        "coordinates": [
          -84.27246,
          33.72672
        ]
      }
    },
    {
      "type": "Feature",
      "properties": {
        "name": "West Hills",
        "state": "California",
        "population": 41426
      },
      "geometry": {
        "type": "Point",
        "coordinates": [
          -118.64398,
          34.19731
        ]
      }
    },
    {
      "type": "Feature",
      "properties": {
        "name": "Louisville",
        "state": "Kentucky",
        "population": 243639
      },
      "geometry": {
        "type": "Point",
        "coordinates": [
          -85.75941,
          38.25424
        ]
      }
    },
    {
      "type": "Feature",
      "properties": {
        "name": "Phenix City",
        "state": "Alabama",
        "population": 37570
      },
      "geometry": {
        "type": "Point",
        "coordinates": [
          -85.00077,
          32.47098
        ]
      }
    },
    {
      "type": "Feature",
      "properties": {
        "name": "Trussville",
        "state": "Alabama",
        "population": 21023
      },
      "geometry": {
        "type": "Point",
        "coordinates": [
          -86.60888,
          33.61983
        ]
      }
    },
    {
      "type": "Feature",
      "properties": {
        "name": "Middletown",
        "state": "Delaware",
        "population": 20372
      },
      "geometry": {
        "type": "Point",
        "coordinates": [
          -75.71632,
          39.44956
        ]
      }
    },
    {
      "type": "Feature",
      "properties": {
        "name": "Brent",
        "state": "Florida",
        "population": 21804
      },
      "geometry": {
        "type": "Point",
        "coordinates": [
          -87.23608,
          30.46881
        ]
      }
    },
    {
      "type": "Feature",
      "properties": {
        "name": "Lake Worth Corridor",
        "state": "Florida",
        "population": 20635
      },
      "geometry": {
        "type": "Point",
        "coordinates": [
          -80.10102,
          26.61649
        ]
      }
    },
    {
      "type": "Feature",
      "properties": {
        "name": "Lakeside",
        "state": "Florida",
        "population": 30943
      },
      "geometry": {
        "type": "Point",
        "coordinates": [
          -81.76815,
          30.12996
        ]
      }
    },
    {
      "type": "Feature",
      "properties": {
        "name": "Lehigh Acres",
        "state": "Florida",
        "population": 86784
      },
      "geometry": {
        "type": "Point",
        "coordinates": [
          -81.6248,
          26.62535
        ]
      }
    },
    {
      "type": "Feature",
      "properties": {
        "name": "Pompano Beach",
        "state": "Florida",
        "population": 107762
      },
      "geometry": {
        "type": "Point",
        "coordinates": [
          -80.12477,
          26.23786
        ]
      }
    },
    {
      "type": "Feature",
      "properties": {
        "name": "Sunny Isles Beach",
        "state": "Florida",
        "population": 22123
      },
      "geometry": {
        "type": "Point",
        "coordinates": [
          -80.12282,
          25.95065
        ]
      }
    },
    {
      "type": "Feature",
      "properties": {
        "name": "Sunrise",
        "state": "Florida",
        "population": 84439
      },
      "geometry": {
        "type": "Point",
        "coordinates": [
          -80.1131,
          26.13397
        ]
      }
    },
    {
      "type": "Feature",
      "properties": {
        "name": "Town 'n' Country",
        "state": "Florida",
        "population": 78442
      },
      "geometry": {
        "type": "Point",
        "coordinates": [
          -82.57732,
          28.01057
        ]
      }
    },
    {
      "type": "Feature",
      "properties": {
        "name": "Dunwoody",
        "state": "Georgia",
        "population": 48733
      },
      "geometry": {
        "type": "Point",
        "coordinates": [
          -84.33465,
          33.94621
        ]
      }
    },
    {
      "type": "Feature",
      "properties": {
        "name": "O'Fallon",
        "state": "Illinois",
        "population": 29002
      },
      "geometry": {
        "type": "Point",
        "coordinates": [
          -89.91121,
          38.59227
        ]
      }
    },
    {
      "type": "Feature",
      "properties": {
        "name": "Zionsville",
        "state": "Indiana",
        "population": 26296
      },
      "geometry": {
        "type": "Point",
        "coordinates": [
          -86.26194,
          39.95087
        ]
      }
    },
    {
      "type": "Feature",
      "properties": {
        "name": "Covington",
        "state": "Kentucky",
        "population": 40997
      },
      "geometry": {
        "type": "Point",
        "coordinates": [
          -84.50855,
          39.08367
        ]
      }
    },
    {
      "type": "Feature",
      "properties": {
        "name": "Hopkinsville",
        "state": "Kentucky",
        "population": 32205
      },
      "geometry": {
        "type": "Point",
        "coordinates": [
          -87.49117,
          36.86561
        ]
      }
    },
    {
      "type": "Feature",
      "properties": {
        "name": "Ironville",
        "state": "Kentucky",
        "population": 288649
      },
      "geometry": {
        "type": "Point",
        "coordinates": [
          -82.69238,
          38.45647
        ]
      }
    },
    {
      "type": "Feature",
      "properties": {
        "name": "Bossier City",
        "state": "Louisiana",
        "population": 68094
      },
      "geometry": {
        "type": "Point",
        "coordinates": [
          -93.73212,
          32.51599
        ]
      }
    },
    {
      "type": "Feature",
      "properties": {
        "name": "Woonsocket",
        "state": "Rhode Island",
        "population": 41475
      },
      "geometry": {
        "type": "Point",
        "coordinates": [
          -71.51478,
          42.00288
        ]
      }
    },
    {
      "type": "Feature",
      "properties": {
        "name": "De Pere",
        "state": "Wisconsin",
        "population": 24724
      },
      "geometry": {
        "type": "Point",
        "coordinates": [
          -88.06038,
          44.44888
        ]
      }
    },
    {
      "type": "Feature",
      "properties": {
        "name": "Pleasant Prairie",
        "state": "Wisconsin",
        "population": 20726
      },
      "geometry": {
        "type": "Point",
        "coordinates": [
          -87.93341,
          42.55308
        ]
      }
    },
    {
      "type": "Feature",
      "properties": {
        "name": "Tempe Junction",
        "state": "Arizona",
        "population": 158368
      },
      "geometry": {
        "type": "Point",
        "coordinates": [
          -111.94348,
          33.41421
        ]
      }
    },
    {
      "type": "Feature",
      "properties": {
        "name": "Chatsworth",
        "state": "California",
        "population": 41255
      },
      "geometry": {
        "type": "Point",
        "coordinates": [
          -118.6012,
          34.25723
        ]
      }
    },
    {
      "type": "Feature",
      "properties": {
        "name": "Foster City",
        "state": "California",
        "population": 33477
      },
      "geometry": {
        "type": "Point",
        "coordinates": [
          -122.27108,
          37.55855
        ]
      }
    },
    {
      "type": "Feature",
      "properties": {
        "name": "La Jolla",
        "state": "California",
        "population": 42808
      },
      "geometry": {
        "type": "Point",
        "coordinates": [
          -117.2742,
          32.84727
        ]
      }
    },
    {
      "type": "Feature",
      "properties": {
        "name": "Lennox",
        "state": "California",
        "population": 22753
      },
      "geometry": {
        "type": "Point",
        "coordinates": [
          -118.35258,
          33.93807
        ]
      }
    },
    {
      "type": "Feature",
      "properties": {
        "name": "Orcutt",
        "state": "California",
        "population": 28905
      },
      "geometry": {
        "type": "Point",
        "coordinates": [
          -120.436,
          34.86526
        ]
      }
    },
    {
      "type": "Feature",
      "properties": {
        "name": "Palo Alto",
        "state": "California",
        "population": 66853
      },
      "geometry": {
        "type": "Point",
        "coordinates": [
          -122.14302,
          37.44188
        ]
      }
    },
    {
      "type": "Feature",
      "properties": {
        "name": "Rancho Santa Margarita",
        "state": "California",
        "population": 49324
      },
      "geometry": {
        "type": "Point",
        "coordinates": [
          -117.6031,
          33.64086
        ]
      }
    },
    {
      "type": "Feature",
      "properties": {
        "name": "Rialto",
        "state": "California",
        "population": 103132
      },
      "geometry": {
        "type": "Point",
        "coordinates": [
          -117.37032,
          34.1064
        ]
      }
    },
    {
      "type": "Feature",
      "properties": {
        "name": "San Clemente",
        "state": "California",
        "population": 65526
      },
      "geometry": {
        "type": "Point",
        "coordinates": [
          -117.61199,
          33.42697
        ]
      }
    },
    {
      "type": "Feature",
      "properties": {
        "name": "Santa Ana",
        "state": "California",
        "population": 335400
      },
      "geometry": {
        "type": "Point",
        "coordinates": [
          -117.86783,
          33.74557
        ]
      }
    },
    {
      "type": "Feature",
      "properties": {
        "name": "North Hills",
        "state": "California",
        "population": 56946
      },
      "geometry": {
        "type": "Point",
        "coordinates": [
          -118.48472,
          34.23639
        ]
      }
    },
    {
      "type": "Feature",
      "properties": {
        "name": "Soledad",
        "state": "California",
        "population": 25003
      },
      "geometry": {
        "type": "Point",
        "coordinates": [
          -121.32632,
          36.42469
        ]
      }
    },
    {
      "type": "Feature",
      "properties": {
        "name": "Woodland Hills",
        "state": "California",
        "population": 70000
      },
      "geometry": {
        "type": "Point",
        "coordinates": [
          -118.60592,
          34.16834
        ]
      }
    },
    {
      "type": "Feature",
      "properties": {
        "name": "Las Vegas",
        "state": "Nevada",
        "population": 623747
      },
      "geometry": {
        "type": "Point",
        "coordinates": [
          -115.13722,
          36.17497
        ]
      }
    },
    {
      "type": "Feature",
      "properties": {
        "name": "Reno",
        "state": "Nevada",
        "population": 241445
      },
      "geometry": {
        "type": "Point",
        "coordinates": [
          -119.8138,
          39.52963
        ]
      }
    },
    {
      "type": "Feature",
      "properties": {
        "name": "Dickinson",
        "state": "North Dakota",
        "population": 23765
      },
      "geometry": {
        "type": "Point",
        "coordinates": [
          -102.78962,
          46.87918
        ]
      }
    },
    {
      "type": "Feature",
      "properties": {
        "name": "Murray",
        "state": "Utah",
        "population": 49250
      },
      "geometry": {
        "type": "Point",
        "coordinates": [
          -111.88799,
          40.66689
        ]
      }
    },
    {
      "type": "Feature",
      "properties": {
        "name": "Mercer Island",
        "state": "Washington",
        "population": 25042
      },
      "geometry": {
        "type": "Point",
        "coordinates": [
          -122.22207,
          47.57065
        ]
      }
    },
    {
      "type": "Feature",
      "properties": {
        "name": "North Creek",
        "state": "Washington",
        "population": 26410
      },
      "geometry": {
        "type": "Point",
        "coordinates": [
          -122.17624,
          47.81954
        ]
      }
    },
    {
      "type": "Feature",
      "properties": {
        "name": "Casper",
        "state": "Wyoming",
        "population": 60285
      },
      "geometry": {
        "type": "Point",
        "coordinates": [
          -106.31308,
          42.86663
        ]
      }
    },
    {
      "type": "Feature",
      "properties": {
        "name": "Mercerville-Hamilton Square",
        "state": "New Jersey",
        "population": 26419
      },
      "geometry": {
        "type": "Point",
        "coordinates": [
          -74.67223,
          40.23126
        ]
      }
    },
    {
      "type": "Feature",
      "properties": {
        "name": "Auburn Gresham",
        "state": "Illinois",
        "population": 45842
      },
      "geometry": {
        "type": "Point",
        "coordinates": [
          -87.65322,
          41.74179
        ]
      }
    },
    {
      "type": "Feature",
      "properties": {
        "name": "Valley Glen",
        "state": "California",
        "population": 60000
      },
      "geometry": {
        "type": "Point",
        "coordinates": [
          -118.44953,
          34.18991
        ]
      }
    },
    {
      "type": "Feature",
      "properties": {
        "name": "Encanto",
        "state": "Arizona",
        "population": 54614
      },
      "geometry": {
        "type": "Point",
        "coordinates": [
          -112.07823,
          33.47937
        ]
      }
    },
    {
      "type": "Feature",
      "properties": {
        "name": "Melrose Park",
        "state": "Illinois",
        "population": 25379
      },
      "geometry": {
        "type": "Point",
        "coordinates": [
          -87.85673,
          41.90059
        ]
      }
    },
    {
      "type": "Feature",
      "properties": {
        "name": "Park Forest",
        "state": "Illinois",
        "population": 21954
      },
      "geometry": {
        "type": "Point",
        "coordinates": [
          -87.67449,
          41.49142
        ]
      }
    },
    {
      "type": "Feature",
      "properties": {
        "name": "Everett",
        "state": "Massachusetts",
        "population": 46050
      },
      "geometry": {
        "type": "Point",
        "coordinates": [
          -71.05366,
          42.40843
        ]
      }
    },
    {
      "type": "Feature",
      "properties": {
        "name": "Lexington",
        "state": "Massachusetts",
        "population": 31394
      },
      "geometry": {
        "type": "Point",
        "coordinates": [
          -71.2245,
          42.44732
        ]
      }
    },
    {
      "type": "Feature",
      "properties": {
        "name": "Lynn",
        "state": "Massachusetts",
        "population": 92457
      },
      "geometry": {
        "type": "Point",
        "coordinates": [
          -70.94949,
          42.46676
        ]
      }
    },
    {
      "type": "Feature",
      "properties": {
        "name": "Ferndale",
        "state": "Michigan",
        "population": 20177
      },
      "geometry": {
        "type": "Point",
        "coordinates": [
          -83.13465,
          42.46059
        ]
      }
    },
    {
      "type": "Feature",
      "properties": {
        "name": "Marquette",
        "state": "Michigan",
        "population": 21297
      },
      "geometry": {
        "type": "Point",
        "coordinates": [
          -87.39542,
          46.54354
        ]
      }
    },
    {
      "type": "Feature",
      "properties": {
        "name": "Southgate",
        "state": "Michigan",
        "population": 29293
      },
      "geometry": {
        "type": "Point",
        "coordinates": [
          -83.19381,
          42.21393
        ]
      }
    },
    {
      "type": "Feature",
      "properties": {
        "name": "Elk River",
        "state": "Minnesota",
        "population": 23963
      },
      "geometry": {
        "type": "Point",
        "coordinates": [
          -93.56718,
          45.30385
        ]
      }
    },
    {
      "type": "Feature",
      "properties": {
        "name": "South Saint Paul",
        "state": "Minnesota",
        "population": 20160
      },
      "geometry": {
        "type": "Point",
        "coordinates": [
          -93.03494,
          44.89274
        ]
      }
    },
    {
      "type": "Feature",
      "properties": {
        "name": "Omaha",
        "state": "Nebraska",
        "population": 486051
      },
      "geometry": {
        "type": "Point",
        "coordinates": [
          -95.94043,
          41.25626
        ]
      }
    },
    {
      "type": "Feature",
      "properties": {
        "name": "Fort Lee",
        "state": "New Jersey",
        "population": 36672
      },
      "geometry": {
        "type": "Point",
        "coordinates": [
          -73.97014,
          40.85093
        ]
      }
    },
    {
      "type": "Feature",
      "properties": {
        "name": "Paterson",
        "state": "New Jersey",
        "population": 147754
      },
      "geometry": {
        "type": "Point",
        "coordinates": [
          -74.17181,
          40.91677
        ]
      }
    },
    {
      "type": "Feature",
      "properties": {
        "name": "Perth Amboy",
        "state": "New Jersey",
        "population": 52682
      },
      "geometry": {
        "type": "Point",
        "coordinates": [
          -74.26542,
          40.50677
        ]
      }
    },
    {
      "type": "Feature",
      "properties": {
        "name": "Piscataway",
        "state": "New Jersey",
        "population": 56044
      },
      "geometry": {
        "type": "Point",
        "coordinates": [
          -74.39904,
          40.49927
        ]
      }
    },
    {
      "type": "Feature",
      "properties": {
        "name": "Bath Beach",
        "state": "New York",
        "population": 33080
      },
      "geometry": {
        "type": "Point",
        "coordinates": [
          -74.00431,
          40.60455
        ]
      }
    },
    {
      "type": "Feature",
      "properties": {
        "name": "Cypress Hills",
        "state": "New York",
        "population": 54944
      },
      "geometry": {
        "type": "Point",
        "coordinates": [
          -73.89125,
          40.67705
        ]
      }
    },
    {
      "type": "Feature",
      "properties": {
        "name": "Glendale",
        "state": "New York",
        "population": 34389
      },
      "geometry": {
        "type": "Point",
        "coordinates": [
          -73.8868,
          40.70149
        ]
      }
    },
    {
      "type": "Feature",
      "properties": {
        "name": "Gravesend",
        "state": "New York",
        "population": 112229
      },
      "geometry": {
        "type": "Point",
        "coordinates": [
          -73.96514,
          40.5976
        ]
      }
    },
    {
      "type": "Feature",
      "properties": {
        "name": "Ithaca",
        "state": "New York",
        "population": 30788
      },
      "geometry": {
        "type": "Point",
        "coordinates": [
          -76.49661,
          42.44063
        ]
      }
    },
    {
      "type": "Feature",
      "properties": {
        "name": "Jamaica",
        "state": "New York",
        "population": 216866
      },
      "geometry": {
        "type": "Point",
        "coordinates": [
          -73.80569,
          40.69149
        ]
      }
    },
    {
      "type": "Feature",
      "properties": {
        "name": "Medford",
        "state": "New York",
        "population": 24142
      },
      "geometry": {
        "type": "Point",
        "coordinates": [
          -73.00011,
          40.8176
        ]
      }
    },
    {
      "type": "Feature",
      "properties": {
        "name": "Garfield Heights",
        "state": "Ohio",
        "population": 28097
      },
      "geometry": {
        "type": "Point",
        "coordinates": [
          -81.60596,
          41.417
        ]
      }
    },
    {
      "type": "Feature",
      "properties": {
        "name": "Rocky River",
        "state": "Ohio",
        "population": 20376
      },
      "geometry": {
        "type": "Point",
        "coordinates": [
          -81.8393,
          41.4756
        ]
      }
    },
    {
      "type": "Feature",
      "properties": {
        "name": "Strongsville",
        "state": "Ohio",
        "population": 44668
      },
      "geometry": {
        "type": "Point",
        "coordinates": [
          -81.83569,
          41.3145
        ]
      }
    },
    {
      "type": "Feature",
      "properties": {
        "name": "Radnor",
        "state": "Pennsylvania",
        "population": 30878
      },
      "geometry": {
        "type": "Point",
        "coordinates": [
          -75.35991,
          40.04622
        ]
      }
    },
    {
      "type": "Feature",
      "properties": {
        "name": "Woodlawn",
        "state": "Maryland",
        "population": 37879
      },
      "geometry": {
        "type": "Point",
        "coordinates": [
          -76.72803,
          39.32288
        ]
      }
    },
    {
      "type": "Feature",
      "properties": {
        "name": "Belton",
        "state": "Missouri",
        "population": 23168
      },
      "geometry": {
        "type": "Point",
        "coordinates": [
          -94.5319,
          38.81195
        ]
      }
    },
    {
      "type": "Feature",
      "properties": {
        "name": "East Independence",
        "state": "Missouri",
        "population": 110675
      },
      "geometry": {
        "type": "Point",
        "coordinates": [
          -94.35523,
          39.09556
        ]
      }
    },
    {
      "type": "Feature",
      "properties": {
        "name": "Jackson",
        "state": "Mississippi",
        "population": 170674
      },
      "geometry": {
        "type": "Point",
        "coordinates": [
          -90.18481,
          32.29876
        ]
      }
    },
    {
      "type": "Feature",
      "properties": {
        "name": "Southaven",
        "state": "Mississippi",
        "population": 52589
      },
      "geometry": {
        "type": "Point",
        "coordinates": [
          -90.01259,
          34.98898
        ]
      }
    },
    {
      "type": "Feature",
      "properties": {
        "name": "Chapel Hill",
        "state": "North Carolina",
        "population": 59568
      },
      "geometry": {
        "type": "Point",
        "coordinates": [
          -79.05584,
          35.9132
        ]
      }
    },
    {
      "type": "Feature",
      "properties": {
        "name": "Concord",
        "state": "North Carolina",
        "population": 87696
      },
      "geometry": {
        "type": "Point",
        "coordinates": [
          -80.58158,
          35.40888
        ]
      }
    },
    {
      "type": "Feature",
      "properties": {
        "name": "Cherry Hill",
        "state": "New Jersey",
        "population": 70475
      },
      "geometry": {
        "type": "Point",
        "coordinates": [
          -75.03073,
          39.93484
        ]
      }
    },
    {
      "type": "Feature",
      "properties": {
        "name": "Fairborn",
        "state": "Ohio",
        "population": 33452
      },
      "geometry": {
        "type": "Point",
        "coordinates": [
          -84.01938,
          39.82089
        ]
      }
    },
    {
      "type": "Feature",
      "properties": {
        "name": "Myrtle Beach",
        "state": "South Carolina",
        "population": 31035
      },
      "geometry": {
        "type": "Point",
        "coordinates": [
          -78.88669,
          33.68906
        ]
      }
    },
    {
      "type": "Feature",
      "properties": {
        "name": "Bartlett",
        "state": "Tennessee",
        "population": 58579
      },
      "geometry": {
        "type": "Point",
        "coordinates": [
          -89.87398,
          35.20453
        ]
      }
    },
    {
      "type": "Feature",
      "properties": {
        "name": "Clarksville",
        "state": "Tennessee",
        "population": 166722
      },
      "geometry": {
        "type": "Point",
        "coordinates": [
          -87.35945,
          36.52977
        ]
      }
    },
    {
      "type": "Feature",
      "properties": {
        "name": "Lebanon",
        "state": "Tennessee",
        "population": 30262
      },
      "geometry": {
        "type": "Point",
        "coordinates": [
          -86.2911,
          36.20811
        ]
      }
    },
    {
      "type": "Feature",
      "properties": {
        "name": "Atascocita",
        "state": "Texas",
        "population": 65844
      },
      "geometry": {
        "type": "Point",
        "coordinates": [
          -95.1766,
          29.99883
        ]
      }
    },
    {
      "type": "Feature",
      "properties": {
        "name": "Friendswood",
        "state": "Texas",
        "population": 38800
      },
      "geometry": {
        "type": "Point",
        "coordinates": [
          -95.20104,
          29.5294
        ]
      }
    },
    {
      "type": "Feature",
      "properties": {
        "name": "Frisco",
        "state": "Texas",
        "population": 154407
      },
      "geometry": {
        "type": "Point",
        "coordinates": [
          -96.82361,
          33.15067
        ]
      }
    },
    {
      "type": "Feature",
      "properties": {
        "name": "Kyle",
        "state": "Texas",
        "population": 35733
      },
      "geometry": {
        "type": "Point",
        "coordinates": [
          -97.87723,
          29.98911
        ]
      }
    },
    {
      "type": "Feature",
      "properties": {
        "name": "Lufkin",
        "state": "Texas",
        "population": 36333
      },
      "geometry": {
        "type": "Point",
        "coordinates": [
          -94.7291,
          31.33824
        ]
      }
    },
    {
      "type": "Feature",
      "properties": {
        "name": "McKinney",
        "state": "Texas",
        "population": 162898
      },
      "geometry": {
        "type": "Point",
        "coordinates": [
          -96.61527,
          33.19762
        ]
      }
    },
    {
      "type": "Feature",
      "properties": {
        "name": "Port Arthur",
        "state": "Texas",
        "population": 55340
      },
      "geometry": {
        "type": "Point",
        "coordinates": [
          -93.94233,
          29.88519
        ]
      }
    },
    {
      "type": "Feature",
      "properties": {
        "name": "Ashburn",
        "state": "Virginia",
        "population": 43511
      },
      "geometry": {
        "type": "Point",
        "coordinates": [
          -77.48749,
          39.04372
        ]
      }
    },
    {
      "type": "Feature",
      "properties": {
        "name": "Cave Spring",
        "state": "Virginia",
        "population": 24922
      },
      "geometry": {
        "type": "Point",
        "coordinates": [
          -80.01282,
          37.22764
        ]
      }
    },
    {
      "type": "Feature",
      "properties": {
        "name": "Darien",
        "state": "Connecticut",
        "population": 20732
      },
      "geometry": {
        "type": "Point",
        "coordinates": [
          -73.46929,
          41.07871
        ]
      }
    },
    {
      "type": "Feature",
      "properties": {
        "name": "Stamford",
        "state": "Connecticut",
        "population": 128874
      },
      "geometry": {
        "type": "Point",
        "coordinates": [
          -73.53873,
          41.05343
        ]
      }
    },
    {
      "type": "Feature",
      "properties": {
        "name": "Westport",
        "state": "Connecticut",
        "population": 26391
      },
      "geometry": {
        "type": "Point",
        "coordinates": [
          -73.3579,
          41.14149
        ]
      }
    },
    {
      "type": "Feature",
      "properties": {
        "name": "Windsor",
        "state": "Connecticut",
        "population": 28778
      },
      "geometry": {
        "type": "Point",
        "coordinates": [
          -72.6437,
          41.8526
        ]
      }
    },
    {
      "type": "Feature",
      "properties": {
        "name": "Dubuque",
        "state": "Iowa",
        "population": 58799
      },
      "geometry": {
        "type": "Point",
        "coordinates": [
          -90.66457,
          42.50056
        ]
      }
    },
    {
      "type": "Feature",
      "properties": {
        "name": "West Des Moines",
        "state": "Iowa",
        "population": 64113
      },
      "geometry": {
        "type": "Point",
        "coordinates": [
          -93.71133,
          41.57721
        ]
      }
    },
    {
      "type": "Feature",
      "properties": {
        "name": "Avondale",
        "state": "Illinois",
        "population": 39721
      },
      "geometry": {
        "type": "Point",
        "coordinates": [
          -87.71117,
          41.93892
        ]
      }
    },
    {
      "type": "Feature",
      "properties": {
        "name": "Elk Grove Village",
        "state": "Illinois",
        "population": 33238
      },
      "geometry": {
        "type": "Point",
        "coordinates": [
          -87.97035,
          42.00392
        ]
      }
    },
    {
      "type": "Feature",
      "properties": {
        "name": "Highland Park",
        "state": "Illinois",
        "population": 29743
      },
      "geometry": {
        "type": "Point",
        "coordinates": [
          -87.80034,
          42.18169
        ]
      }
    },
    {
      "type": "Feature",
      "properties": {
        "name": "Libertyville",
        "state": "Illinois",
        "population": 20436
      },
      "geometry": {
        "type": "Point",
        "coordinates": [
          -87.95313,
          42.28308
        ]
      }
    },
    {
      "type": "Feature",
      "properties": {
        "name": "Loves Park",
        "state": "Illinois",
        "population": 23455
      },
      "geometry": {
        "type": "Point",
        "coordinates": [
          -89.05816,
          42.32002
        ]
      }
    },
    {
      "type": "Feature",
      "properties": {
        "name": "North Peoria",
        "state": "Illinois",
        "population": 113004
      },
      "geometry": {
        "type": "Point",
        "coordinates": [
          -89.58426,
          40.71754
        ]
      }
    },
    {
      "type": "Feature",
      "properties": {
        "name": "Arlington",
        "state": "Massachusetts",
        "population": 42844
      },
      "geometry": {
        "type": "Point",
        "coordinates": [
          -71.15644,
          42.41537
        ]
      }
    },
    {
      "type": "Feature",
      "properties": {
        "name": "Burton",
        "state": "Michigan",
        "population": 28788
      },
      "geometry": {
        "type": "Point",
        "coordinates": [
          -83.61634,
          42.99947
        ]
      }
    },
    {
      "type": "Feature",
      "properties": {
        "name": "Detroit",
        "state": "Michigan",
        "population": 677116
      },
      "geometry": {
        "type": "Point",
        "coordinates": [
          -83.04575,
          42.33143
        ]
      }
    },
    {
      "type": "Feature",
      "properties": {
        "name": "Southfield",
        "state": "Michigan",
        "population": 73156
      },